{
   "cities":[
      {
         "name":"Sydney",
         "country":"Australia",
         "lat":-33.865143,
         "long":151.2099,
         "temp":41.05
      },
      {
         "name":"ralia",
         "country":"Australia",
         "lat":-37.815018,
         "long":144.946014,
         "temp":24.03
      },
      {
         "name":"Brisbane",
         "country":"Australia",
         "lat":-27.470125,
         "long":153.021072,
         "temp":21.11
      },
      {
         "name":"Tasmania",
         "country":"Australia",
         "lat":-41.640079,
         "long":146.315918,
         "temp":13.28
      },
      {
         "name":"Adelaide",
         "country":"Australia",
         "lat":-34.92866,
         "long":138.59863,
         "temp":19.13
      },
      {
         "name":"Perth",
         "country":"Australia",
         "lat":-31.95224,
         "long":115.8614,
         "temp":29.09
      },
      {
         "name":"Darwin",
         "country":"Australia",
         "lat":-12.46113,
         "long":130.84185,
         "temp":17.87
      },
      {
         "name":"Canberra",
         "country":"Australia",
         "lat":-35.28346,
         "long":149.12807,
         "temp":33.17
      },
      {
         "name":"San Francisco",
         "country":"United States",
         "lat":37.773972,
         "long":-122.431297,
         "temp":20.21
      },
      {
         "name":"New York",
         "country":"United States",
         "lat":40.71427,
         "long":-74.00597,
         "temp":22.19
      },
      {
         "name":"Seattle",
         "country":"United States",
         "lat":47.60621,
         "long":-122.33207,
         "temp":31.06
      },
      {
         "name":"London",
         "country":"England",
         "lat":51.51279,
         "long":-0.09184,
         "temp":30.36
      },
      {
         "name":"Amsterdam",
         "country":"Netherlands",
         "lat":52.37403,
         "long":4.88969,
         "temp":19.52
      }
   ],
   "countries":[
      "United States",
      "Netherlands",
      "England",
      "Australia"
   ]
}
